OPIS Truckstop ID,Truckstop Name,Address,City,State,Rack ID,Retail Price,lat,lon
7,WOODSHED OF BIG CABIN,"I-44, EXIT 283 & US-69",Big Cabin,OK,307,3.00733333,35.25364,-99.646878
9,KWIK TRIP #796,"I-94, EXIT 143 & US-12 & SR-21",Tomah,WI,420,3.28733333,43.978526,-90.51355
20,PILOT TRAVEL CENTER #1243,"I-8, EXIT 119 & SR-85",Gila Bend,AZ,930,3.899,32.960027,-112.702211
20,PILOT #1243,"I-8, EXIT 119 & SR-85",Gila Bend,AZ,930,3.899,32.960027,-112.702211
28,LITTLEFIELD EXPRESS #2,"I-540, EXIT 12 & US-71",Fort Smith,AR,645,3.399,35.372017,-94.386
35,ACI TRUCK STOP,US-46,Columbia,NJ,90,3.079,40.78096,-74.385611
36,SHENANDOAH TRUCK CENTER,"I-81, EXIT 273 & SR-703/SR-292",Mount Jackson,VA,60,2.899,38.743242,-78.646498
44,CIRCLE K #2612042,"I-35,  EXIT 271",Jarrell,TX,595,2.919,30.82639,-97.606035
46,PETRO STOPPING CENTER #348,"I-85,  EXIT 22 & CR-138",Shorter,AL,720,3.154,45.638409,-122.5308
49,TA SEYMOUR TRAVEL CENTER,"I-65, EXIT 50 & US-50 & US-31",Seymour,IN,415,3.959,38.959251,-85.888222
50,TA COUNCIL BLUFFS TRAVEL CENTER,"I-29 & I-80, EXIT 3",Council Bluffs,IA,319,3.72566666,41.230526,-95.838091
56,TOPS TRUCK STOP,"I-94, EXIT 182 & US-83",Sterling,ND,390,3.51566666,46.301726,-98.949425
75,Good 2 Go #709,US-50,Montrose,CO,810,3.424,38.486987,-107.868585
77,OASIS TRAVEL PLAZA,US-13,Laurel,DE,243,3.229,38.555203,-75.568254
79,DELAWARE TRUCK PLAZA,US-13 & US-40,New Castle                              ,DE,243,3.249,39.664685,-75.566167
81,One9 #89,"I-75, EXIT 224",Ellenton,FL,225,3.439,27.526708,-82.52277
85,DOWNIEVILLE FUEL STOP,"I-70, EXIT 234",Dumont,CO,800,3.459,39.76471,-105.60028
91,MOLLYS FOOD & FUEL,"I-20 & ST 22, EXIT 55",Crawfordville                           ,GA,135,3.499,5.679674,-0.173201
105,TA SAGINAW I 75 TRAVEL CENTER,"I-75, EXIT 144-B",Bridgeport,MI,260,3.269,43.37888,-83.89361
105,TA SAGINAW I 75 TRAVEL CENTER,"I-75, EXIT 144-B",Bridgeport,MI,260,3.339,43.37888,-83.89361
105,TA SAGINAW I 75 TRAVEL CENTER,"I-75, EXIT 144-B",Bridgeport,MI,260,3.429,43.37888,-83.89361
105,TA SAGINAW I 75 TRAVEL CENTER,"I-75, EXIT 144-B",Bridgeport,MI,260,3.289,43.37888,-83.89361
105,TA SAGINAW I 75 TRAVEL CENTER,"I-75, EXIT 144-B",Bridgeport,MI,260,3.399,43.37888,-83.89361
105,TA SAGINAW I 75 TRAVEL CENTER,"I-75, EXIT 144-B",Bridgeport,MI,260,3.299,43.37888,-83.89361
118,Lupton Truck Stop #567,"I-40, EXIT 359",Lupton,AZ,580,3.299,35.354882,-109.052124
121,PETRO STOPPING CENTER #306,"I-10, EXIT 200",Eloy,AZ,930,3.474,32.778688,-111.596545
127,CIRCLE K #4700095,US-41,Henderson,KY,340,3.609,37.884075,-87.56224
128,THE EFFINGHAM CHROME SHOP,"I-57 & I-70, EXIT 159",Effingham                               ,IL,510,3.399,41.791171,-87.586713
128,THE EFFINGHAM CHROME SHOP,"I-57 & I-70, EXIT 159",Effingham                               ,IL,510,3.349,41.791171,-87.586713
128,THE EFFINGHAM CHROME SHOP,"I-57 & I-70, EXIT 159",Effingham                               ,IL,510,3.549,41.791171,-87.586713
135,LOVES TRAVEL STOP #766,"I-80, EXIT 27",Atkinson,IL,290,3.589,41.464864,-90.036814
135,LOVES TRAVEL STOP #766,"I-80, EXIT 27",Atkinson,IL,290,3.389,41.464864,-90.036814
135,LOVES TRAVEL STOP #766,"I-80, EXIT 27",Atkinson,IL,290,3.449,41.464864,-90.036814
147,SPEEDWAY #8039,"I-69, EXIT 234 & SR-67",Daleville,IN,375,3.624,33.03251,-116.883798
149,RAYS TRUCK WASH,"I-69, EXIT 309 & US-30",Fort Wayne                              ,IN,370,3.59233333,41.017558,-85.171635
151,CUBBYS #2101,"I-80, EXIT 211 & SR-47",Gothenburg,NE,475,3.13233333,40.930235,-100.100822
159,PILOT TRAVEL CENTER #87,"I-10, EXIT 343",Jacksonville,FL,75,3.859,30.369914,-81.660992
159,PILOT TRAVEL CENTERS #87,"I-10, EXIT 343",Jacksonville,FL,75,3.859,30.369914,-81.660992
160,PILOT TRAVEL CENTERS #79,"I-12, EXIT 10 AT MILE 10",Denham Springs                          ,LA,600,3.23233333,30.469044,-90.960085
164,FLYING J TRAVEL PLAZA #650,"I-94, EXIT 15 B",Lake Station                            ,IN,365,3.809,41.579279,-87.25305
167,FLYING J TRAVEL PLAZA #653,RT 2 & I-65 EXIT 240,Hebron,IN,365,3.43566666,41.321194,-87.198978
174,Hop-In Food Stores,US-59 & SR-224,Nacogdoches                             ,TX,618,2.859,41.151909,-81.386869
184,SAPP BROS TRAVEL CENTER,"I-29 & I-80, EXIT 1B",Council Bluffs,IA,486,3.719,41.230526,-95.838091
186,COFFEE CUP FUEL STOP #5,"I-90, EXIT 154 & US-16",Moorcroft                               ,WY,822,3.239,42.849754,-106.323386
187,DUDLEYS CORNER,"I-35, EXIT 165 & SR-3",Latimer,IA,433,3.23233333,42.553664,-94.993346
191,KUM & GO #0302,"I-35, EXIT 193 & SR 106",Clear Lake,IA,433,3.18566666,43.13372,-93.365025
192,Brew Stuart Truckstop,"I-80, EXIT 93",Stuart                                  ,IA,320,3.099,41.500039,-94.31861
195,PETRO STOPPING CENTER #311,"I-40 & I-55, EXIT 280",West Memphis,AR,435,3.36733333,35.150295,-90.134052
198,SINCLAIR,"I-76, EXIT 115",Atwood,CO,800,3.299,40.549574,-103.274594
199,PETRO STOPPING CENTER #366,"I-70, EXIT 252",Salina,KS,523,3.80566666,38.82358,-97.610411
203,PILOT TRAVEL CENTER #31,"I-80/94, EXIT 2",Highland,IN,365,3.829,41.551826,-87.461181
203,PILOT TRAVEL CENTERS #31,"I-80/94, EXIT 2",Highland,IN,365,3.799,41.551826,-87.461181
207,MARATHON,SR-32,Sardinia                                ,OH,300,3.56566666,39.004754,-83.80519
216,CIRCLE K #2721593,"I-10, EXIT 50",Ocean Springs,MS,715,3.41566666,30.404027,-88.788015
217,NORTH 9TH 24/7,"I-70, EXIT 252",Salina,KS,523,3.02566666,38.82358,-97.610411
231,DERBY CITYS TRUCK PLAZA,"I-75, EXIT 62 & US-25",Mount Vernon,KY,410,2.999,37.5806,-87.35435
235,PILOT TRAVEL CENTERS #92,"I-75, EXIT 358",Ocala,FL,225,3.359,29.19339,-82.136635
235,PILOT TRAVEL CENTER #92,"I-75, EXIT 358",Ocala,FL,225,3.41233333,29.19339,-82.136635
240,LA 1 SOUTH TRUCKSTOP,"I-10, EXIT 153 & SR-1",Port Allen,LA,600,3.039,43.920084,10.883101
243,SAVE,US-41 & SR-10,Lake Village,IN,399,3.179,40.755633,-73.945481
244,BIG D TRUCK TRAVEL PLAZA,"I-10, EXIT 92 & SR-95",Duson,LA,725,2.98233333,53.697551,-113.223865
248,Mardi Gras Truck Stop,"I-10, EXIT 236",New Orleans,LA,725,3.729,30.056708,-89.889852
250,GOLDEN OX TRUCK STOP,"I-70/US-40, EXIT 159 & US-183",Hays,KS,523,3.499,38.880051,-99.323766
253,LOVES TRAVEL STOP #450,"I-40, EXIT 280 & I-55, EXIT 4",West Memphis,AR,435,3.32566666,37.723089,-122.446977
256,BFS FOODS #66,"I-68/US-40, EXIT 22 & US-219",Grantsville                             ,MD,165,3.899,39.699558,-79.158698
257,PILOT TRAVEL CENTER #917- TOWN PUMP,I-15 & 31ST STREET EXIT 277,Great Falls                             ,MT,815,3.63566666,47.529455,-111.235626
263,CASEYS #3956,I-94 EXIT 16,Bridgman,MI,465,3.559,41.939308,-86.567562
267,CORNER MARKET #117,SR-154 & SR-129,Dodge City,KS,357,3.399,34.610644,-120.05879
269,PILOT TRAVEL CENTERS #24,"I-75, EXIT 15",Monroe                                  ,MI,325,3.299,40.31678,-74.41626
269,PILOT TRAVEL CENTERS #24,"I-75, EXIT 15",Monroe                                  ,MI,325,3.249,40.31678,-74.41626
269,PILOT TRAVEL CENTERS #24,"I-75, EXIT 15",Monroe                                  ,MI,325,3.439,40.31678,-74.41626
269,PILOT TRAVEL CENTERS #24,"I-75, EXIT 15",Monroe                                  ,MI,325,3.349,40.31678,-74.41626
269,PILOT TRAVEL CENTERS #24,"I-75, EXIT 15",Monroe                                  ,MI,325,3.559,40.31678,-74.41626
278,CARLISLE PLAZA,US-41,Carlisle,IN,510,3.499,38.962723,-87.400079
281,CIRCLE K #4700065,"I-65, EXIT 76 & US-31",Taylorsville,IN,375,3.399,40.71118,-78.97642
289,LOVES TRAVEL STOP #173,"I-70, MM 209",Lawrence,KS,553,3.229,38.954795,-95.260629
292,PETES #56,US-169 & CR-5000,Cherryvale,KS,307,3.23233333,25.826458,-80.121597
293,LOVES TRAVEL STOP #176,"I-35, MILE MARKER 97",Matfield Green,KS,336,3.25566666,38.160232,-96.562612
304,FL Roberts,"I-91, EXIT 4",Springfield,MA,100,3.599,42.118225,-72.539526
309,QUIKTRIP #231,"I-635, EXIT 3",Kansas City,KS,400,3.199,39.113581,-94.630146
323,SAPP BROS TRAVEL CENTER,"I-80, EXIT 126",Ogallala,NE,475,3.46566666,41.129278,-101.722911
326,FLYING J TRAVEL PLAZA #748,"I-15, EXIT 357",Willard                                 ,UT,835,3.749,41.414026,-112.044646
341,TA JACKSONVILLE SOUTH TRAVEL CENTER,"I-95, EXIT 329",Saint Johns,FL,75,3.469,29.913888,-81.41394
347,7-ELEVEN #40514,I-90/80-IN TOLL RD MM 22E,Portage,IN,365,3.99066666,41.584252,-87.183278
358,TA BINGHAMTON TRAVELCENTER,"I-81N, EXIT 2W & I-81S, EXIT 3",Binghamton,NY,32,3.769,42.097994,-75.917039
358,TA BINGHAMTON TRAVELCENTER,"I-81N, EXIT 2W & I-81S, EXIT 3",Binghamton,NY,32,3.689,42.097994,-75.917039
358,TA BINGHAMTON TRAVELCENTER,"I-81N, EXIT 2W & I-81S, EXIT 3",Binghamton,NY,32,3.699,42.097994,-75.917039
358,TA BINGHAMTON TRAVELCENTER,"I-81N, EXIT 2W & I-81S, EXIT 3",Binghamton,NY,32,3.739,42.097994,-75.917039
361,CIRCLE K #2726293,"I-295, EXIT 25",Jacksonville,FL,75,3.31566666,30.369914,-81.660992
368,WILTON TRAVEL PLAZA,"I-87, EXIT 16",Gansevoort                              ,NY,12,3.749,43.19618,-73.65178
368,WILTON TRAVEL PLAZA,"I-87, EXIT 16",Gansevoort                              ,NY,12,3.799,43.19618,-73.65178
372,GAS DEPOT,"I-94, EXIT 5",Hammond,IN,365,3.999,41.593176,-87.502724
381,7-Eleven #41830,US-69 & US-135,Jacksonville,TX,630,2.91566666,31.961001,-95.262445
387,Circle K #2709664,"I-8, EXIT 12",Yuma,AZ,930,3.489,32.553325,-114.510731
388,Pilot Travel Centers #14,"I-71, EXIT 131",Sunbury,OH,315,3.719,39.61311,-84.36578
391,PILOT TRAVEL CENTERS #13,"I-71, EXIT 209",Seville,OH,305,3.699,41.016563,-81.868423
403,TRUCKOMAT OF HEBRON,"I-70, EXIT 126 & SR-37",Hebron,OH,315,3.429,40.290233,-83.031788
407,FUEL MART #641,"I-80 & I-280, EXIT 71",Perrysburg                              ,OH,550,3.499,39.211107,-84.694807
421,PETRO STOPPING CENTER #316,"I-40 & I-35, EXIT 127",Oklahoma City,OK,483,3.30233333,35.45757,-97.620521
424,E EXPRESS,"I-40, EXIT 166",Choctaw,OK,483,2.899,35.479513,-97.265703
425,Neighbors Express,"I-16, EXIT 51",Dublin                                  ,GA,85,3.299,32.53877,-82.921248
442,WESTERN COOP,US-385 & SR-2,Alliance,NE,795,3.324,46.989515,6.930901
455,MR FUEL #753,"I-95, EXIT 104 & SR-207",Ruther Glen,VA,180,3.26566666,39.409179,-83.026579
456,THE COUNTRY OASIS,US-24,Woodburn                                ,IN,370,3.399,41.125011,-84.851654
458,HAPPY HILLS GAS & COFFEE,I-29 EXIT 110,Rock Port,MO,400,3.399,40.410496,-95.52837
460,TRUCK STOP 44,I-20 EXIT 44,Gilbert,SC,135,3.079,33.924078,-81.392968
461,SPINX #271,"I-26, EXIT 145 & US-601",Orangeburg,SC,42,3.26233333,33.496498,-80.862668
469,LOAF N JUG #750010,US-160 & SR-17,Alamosa,CO,803,3.259,39.97486,-105.157478
474,KEWANEE 1 STOP,"I-20, EXIT 169 & US-80",Toomsuba,MS,705,3.299,27.930099,-82.730217
478,GASTRAK OF PEMBINA,"I-29, EXIT 215",Pembina                                 ,ND,355,3.299,48.771848,-97.551796
483,ALLSUPS #2387,US-54/SR-136/SR-3 & US-64,Guymon,OK,585,2.97566666,36.688676,-101.478377
486,LA NORIA CONV STORES,"I-35 N, EXIT 4",Laredo                                  ,TX,693,3.299,27.53548,-99.483817
489,EDDIES CORNER,US-87 & US-191,Moore,MT,815,3.749,46.974864,-109.693715
491,One9 #403,"I-75, EXIT 117",Heiskell,TN,405,2.999,36.08175,-84.0538
496,PILOT TRAVEL CENTERS #270,"I-40 & I-75, EXIT 374",Knoxville,TN,405,3.439,36.0148,-83.970819
509,LOVES TRAVEL STOPS #256,"I-10, EXIT 140B",Van Horn,TX,640,3.649,31.040253,-104.831363
509,LOVES TRAVEL STOP #256,"I-10, EXIT 140B",Van Horn,TX,640,3.649,31.040253,-104.831363
522,GO MART FOOD STORE #57,"I-70 & ST-285, EXIT 186",Lore City                               ,OH,430,3.179,39.772243,-104.810471
523,CIRCLE K #2723322,"I-985, EXIT 20 & SR-60",Gainesville,GA,18,3.26566666,27.639032,-80.488942
525,FASTBREAK,US-45 ALT,West Point,MS,705,3.059,33.607018,-88.657161
546,PLAZA 30,US-30,Wanatah,IN,365,3.499,41.431534,-86.897166
557,SAPP BROS TRAVEL CENTER,"I-80, EXIT 73",Peru,IL,290,3.389,41.363656,-89.144366
557,SAPP BROS TRAVEL CENTER,"I-80, EXIT 73",Peru,IL,290,3.589,41.363656,-89.144366
557,SAPP BROS TRAVEL CENTER,"I-80, EXIT 73",Peru,IL,290,3.449,41.363656,-89.144366
557,SAPP BROS TRAVEL CENTER,"I-80, EXIT 73",Peru,IL,290,3.289,41.363656,-89.144366
559,SHELL MORGAN ROAD TRUCK STOP,"I-40, EXIT 142",Maumelle,AR,695,3.20733333,34.858852,-92.403179
566,TA GARY TRAVEL CENTER,"I-80/I-94, EXIT 6",Gary,IN,365,3.83066666,41.589885,-87.346784
567,TA ELOY TRAVEL CENTER,"I-10 & I-8, EXIT 203",Eloy,AZ,930,3.459,33.494996,-111.905059
572,PILOT TRAVEL CENTER #881,"I-69, EXIT 309A",Fort Wayne                              ,IN,370,3.899,41.113154,-85.12887
572,PILOT TRAVEL CENTERS #881,"I-69, EXIT 309A",Fort Wayne                              ,IN,370,3.879,41.113154,-85.12887
576,PETRO STOPPING CENTER #343,"I-10, EXIT 76",Egan,LA,600,3.624,30.244597,-92.513464
578,LOVES TRAVEL STOP #449,"I-84, EXIT 17",Troutdale,OR,935,3.779,45.533555,-122.395959
579,FLYING J TRAVEL PLAZA #764,"I-80, EXIT 104 & US-191",Rock Springs,WY,835,3.67066666,41.594274,-109.246355
586,AMERISTAR TRAVEL PLAZA #120,"I-82, EXIT 80",Prosser,WA,925,4.399,46.203165,-119.766964
586,AMERISTAR TRAVEL PLAZA #120,"I-82, EXIT 80",Prosser,WA,925,4.559,46.203165,-119.766964
588,TA TUSCALOOSA TRAVEL CENTER,"I-20/I-59, EXIT 77",Cottondale,AL,615,2.964,31.20518,-85.38188
591,TA Concordia Travel Plaza,"I-70, EXIT 58 & SR-23",Concordia,MO,400,3.22566666,53.453459,-113.429531
599,Sapp Bros Travel Center,"I-80, EXIT 59 & SR-17J",Sidney,NE,475,3.50066666,41.132458,-102.967539
602,JIFFY MART EXIT 18 TRUCK STOP,"I-89/SR-120, EXIT 18 & SR-120",Lebanon,NH,12,3.599,32.5785,-116.628444
614,TA MAYBROOK TRAVEL CENTER,"I-84, EXIT 5",Montgomery,NY,120,4.359,41.560212,-74.231774
628,KWIK FILL #227,"I-90,  EXIT 218",Geneva,OH,305,3.15233333,39.66201,-82.43349
629,FLYING J #850,TCH-16,Edmonton,AB,80,4.39948962,39.71614,-96.999246
629,FLYING J #850,TCH-16,Edmonton,AB,80,4.39625375,39.71614,-96.999246
629,FLYING J #850,TCH-16,Edmonton,AB,80,4.40695023,39.71614,-96.999246
629,FLYING J #850,TCH-16,Edmonton,AB,80,4.40630048,39.71614,-96.999246
629,FLYING J #850,TCH-16,Edmonton,AB,80,4.39722401,39.71614,-96.999246
629,FLYING J #850,TCH-16,Edmonton,AB,80,4.3981947,39.71614,-96.999246
636,UNION 76,"I-5, EXIT 233 E",Albany,OR,935,3.379,44.622238,-123.092707
651,ONE9 #1366,"I-40, EXIT 126 & US-641",Holladay,TN,460,2.98566666,36.14284,-85.54331
652,TA KNOXVILLE EAST TRAVEL CENTER,"I-40 & I-75, EXIT 374",Knoxville,TN,405,3.42566666,36.0148,-83.970819
659,FLYING J #869,HWY 2 SOUTH,Nanton,AB,50,4.39948962,42.598189,-73.973582
659,FLYING J #869,HWY 2 SOUTH,Nanton,AB,50,4.59317483,42.598189,-73.973582
659,FLYING J #869,HWY 2 SOUTH,Nanton,AB,50,4.59114784,42.598189,-73.973582
659,FLYING J #869,HWY 2 SOUTH,Nanton,AB,50,4.60163996,42.598189,-73.973582
659,FLYING J #869,HWY 2 SOUTH,Nanton,AB,50,4.59216111,42.598189,-73.973582
659,FLYING J #869,HWY 2 SOUTH,Nanton,AB,50,4.60231851,42.598189,-73.973582
669,PETRO STOPPING CENTER #350,"I-10,  EXIT 4",Canutillo,TX,640,3.499,31.918022,-106.598
672,CROWN POINT TRUCK STOP,"I-295/US-130,EXIT 22",Thorofare,NJ,150,3.549,39.84234,-75.19629
680,TA EXPRESS SUMMIT,"I-29, EXIT 207 & US-12",Summit,SD,566,3.20566666,34.798485,-86.952669
684,7-ELEVEN #35101,"I-86/SR-17, EXIT 16",Randolph,NY,38,4.499,42.118113,-79.000377
689,FLYING EAGLE,"I-235, EXIT 4",Wichita,KS,570,3.499,37.687288,-97.338469
692,BP,US-63,Ottumwa,IA,489,3.399,41.000951,-92.403524
739,Arco #364420,US-23,Greenup,KY,255,3.649,38.526128,-82.943154
748,QUIKTRIP #4231,US-85,Evans,CO,800,3.17233333,40.390542,-104.687999
769,AYERCO #26,US-61/US-136,Alexandria,MO,345,3.01566666,40.35975,-91.460043
815,Kwik Trip #1508,"US-18/SR-151, EXIT 58",Barneveld,WI,420,3.489,43.01242,-89.897096
855,SPEEDWAY #7459,US-41 & SR-137,North Chicago,IL,293,3.379,35.011806,-77.571517
855,SPEEDWAY #7459,US-41 & SR-137,North Chicago,IL,293,3.499,35.011806,-77.571517
855,SPEEDWAY #7459,US-41 & SR-137,North Chicago,IL,293,3.289,35.011806,-77.571517
863,Ocean Fuel,US-301/SR-73,Sylvania,GA,195,3.499,33.11097,-83.61517
906,PILOT TRAVEL CENTERS #429,"I-40, EXIT 280",West Memphis,AR,435,3.499,35.1514,-90.185285
906,PILOT TRAVEL CENTER #429,"I-40, EXIT 280",West Memphis,AR,435,3.291,35.1514,-90.185285
908,CIRCLE K #2704888,"I-65, EXIT 246 & SR-119",Pelham,AL,615,3.46566666,34.610644,-120.05879
912,PETRO STOPPING CENTER #319,"I-20/59,  EXIT 100",Mc Calla,AL,615,3.12566666,32.391047,-85.668882
936,CASEYS #4254,"I-40, EXIT 129",Conway,AR,695,3.03233333,35.086096,-92.453883
970,CIRCLE K #2702885,"I-17/SR-60, EXIT 199A",Phoenix,AZ,930,3.39233333,33.60503,-112.070892
977,PILOT TRAVEL CENTER #328,"I-10, EXIT 17",Quartzsite,AZ,930,3.959,33.667535,-114.217043
977,PILOT TRAVEL CENTERS #328,"I-10, EXIT 17",Quartzsite,AZ,930,3.959,33.667535,-114.217043
981,STINKER #85,"I-15, EXIT 93",Blackfoot,ID,825,3.53233333,43.190128,-112.350346
982,CIRCLE K #2701948,"I-8, EXIT 7 & SR-195",Yuma,AZ,900,3.56566666,33.639649,-112.004933
1028,FOUR STATES TRUCK STOP,"I-495, EXIT 4 & SR-9",New Castle,DE,243,3.449,39.664685,-75.566167
1028,FOUR STATES TRUCK STOP,"I-495, EXIT 4 & SR-9",New Castle,DE,243,3.399,39.664685,-75.566167
1042,Union 76,US-441 & SR-100A,Lake City,FL,75,3.56233333,30.188826,-82.637793
1043,ONE9 #1401,I-75 EXIT 414  & US-41,Lake City,FL,75,3.259,30.188826,-82.637793
1043,SHELL DBA ONE9 #1401,I-75 EXIT 414  & US-41,Lake City,FL,75,3.244,30.188826,-82.637793
1047,TA MARIANNA TRAVEL CENTER,"I-10/SR-8, EXIT 142 & SR-71",Marianna,FL,20,3.60733333,30.776319,-85.234411
1075,PILOT TRAVEL CENTER #68,"I-16 /SR-404, EXIT 51 & US-441",Dublin,GA,85,3.43233333,32.53877,-82.921248
1075,PILOT TRAVEL CENTERS #68,"I-16 /SR-404, EXIT 51 & US-441",Dublin,GA,85,3.399,32.53877,-82.921248
1106,CIRCLE K #2705367,"I-20, EXIT 172",Thomson,GA,16,3.399,33.466053,-82.501796
1112,BC AMPRIDE TRUCK PLAZA,US-59/SR-141,Denison,IA,527,3.399,42.015823,-95.352878
1115,KWIK STAR #704,SR-57/SR-14,Parkersburg,IA,565,3.58233333,42.573652,-92.778797
1121,TRAVELERS OASIS,"I-84, EXIT 182",Eden,ID,787,3.799,42.605539,-114.209203
1128,TA CHICAGO NORTH TRAVEL CENTER,"I-94/US-41, EXIT 1",Wadsworth,IL,444,3.819,42.426933,-87.915438
1128,TA CHICAGO NORTH TRAVEL CENTER,"I-94/US-41, EXIT 1",Wadsworth,IL,444,3.879,42.426933,-87.915438
1128,TA CHICAGO NORTH TRAVEL CENTER,"I-94/US-41, EXIT 1",Wadsworth,IL,444,3.779,42.426933,-87.915438
1128,TA CHICAGO NORTH TRAVEL CENTER,"I-94/US-41, EXIT 1",Wadsworth,IL,444,3.769,42.426933,-87.915438
1132,SPEEDWAY #7423,"I-57, EXIT 83",Ina,IL,293,3.249,38.150317,-88.903065
1136,PILOT TRAVEL CENTER #171,"I-74, EXIT 206",Oakwood,IL,280,3.399,40.139877,-87.8125
1136,PILOT TRAVEL CENTER #171,"I-74, EXIT 206",Oakwood,IL,280,3.499,40.139877,-87.8125
1136,PILOT TRAVEL CENTER #171,"I-74, EXIT 206",Oakwood,IL,280,3.599,40.139877,-87.8125
1140,CIRCLE K #4701398,"I-55, EXIT 82 & SR-104",Divernon,IL,280,3.499,47.891346,-122.732318
1149,PILOT TRAVEL CENTER #30,"I-70, EXIT 96",Greenfield,IN,375,3.959,39.795363,-85.768886
1149,PILOT TRAVEL CENTERS #30,"I-70, EXIT 96",Greenfield,IN,375,3.959,39.795363,-85.768886
1151,SPEEDWAY #8061,"I-70, EXIT 115 & SR-109",Knightstown,IN,375,3.759,39.795413,-85.527991
1154,CIRCLE K #2704691,SR-71 & CR-214,Cedar Creek,TX,595,3.199,,
1156,CIRCLE K #4700028,"I-74/US-421, EXIT 116 & SR-44",Shelbyville,IN,375,3.599,40.588908,-85.022152
1157,One9 #297,"I-70, EXIT 11 & SR-46",Terre Haute                             ,IN,510,3.43566666,39.439861,-87.336499
1158,PILOT TRAVEL CENTERS #36,US-30  & SR-49,Valparaiso,IN,365,3.869,40.760667,-73.907999
1158,PILOT TRAVEL CENTER #36,US-30  & SR-49,Valparaiso,IN,365,3.859,40.760667,-73.907999
1163,SHORT STOP #13,US-54,Emporia,KS,553,2.839,38.410394,-96.191799
1176,PILOT TRAVEL CENTERS #353,"I-75, EXIT 129",Georgetown,KY,410,3.20566666,36.88926,-83.05517
1179,PILOT TRAVEL CENTERS #399,"I-65, EXIT 105",Lebanon Junction,KY,415,3.609,37.839258,-85.722006
1196,SOUTHERN BELLE TRUCK STOP,US-61 & SR-964,Saint Francisville,LA,725,3.384,30.783415,-91.373357
1199,ALLTOWN MARKETS #306,"I-190, EXIT 7",Leominster,MA,178,3.68233333,42.519615,-71.777338
1202,ONE9 #290,"I-95, EXIT 93 & SR-222",Perryville,MD,22,3.599,39.569611,-76.069864
1204,PETRO STOPPING CENTER #321,"I-70 & I-57, EXIT 159",Effingham,IL,574,3.549,41.791171,-87.586713
1204,PETRO STOPPING CENTER #321,"I-70 & I-57, EXIT 159",Effingham,IL,574,3.349,41.791171,-87.586713
1204,PETRO STOPPING CENTER #321,"I-70 & I-57, EXIT 159",Effingham,IL,574,3.439,41.791171,-87.586713
1204,PETRO STOPPING CENTER #321,"I-70 & I-57, EXIT 159",Effingham,IL,574,3.399,41.791171,-87.586713
1208,D AVENUE FUEL PLAZA,US-131,Kalamazoo,MI,465,3.499,42.314813,-85.592991
1208,D AVENUE FUEL PLAZA,US-131,Kalamazoo,MI,465,3.099,42.314813,-85.592991
1210,ROADHAWK TRAVEL CENTER,"I-94, EXIT 56 & SR-51",Paw Paw                                 ,MI,465,3.599,33.639649,-112.004933
1210,ROADHAWK TRAVEL CENTER,"I-94, EXIT 56 & SR-51",Paw Paw                                 ,MI,465,3.559,33.639649,-112.004933
1217,KWIK TRIP #250,"I-90, EXIT 179",Austin,MN,515,3.374,43.66604,-92.988013
1218,CASEYS #3658,SR-210,Pillager,MN,522,3.299,46.327844,-94.475013
1225,AYERCO #35,US-61 & US-61 BUS,Bowling Green,MO,494,3.01566666,39.34029,-91.195747
1234,Lamar Travel Plaza,US-71 & US-160,Lamar,MO,416,3.199,40.49444,-95.08442
1236,AYERCO #44,US-36 & US-24,Palmyra,MO,494,3.01566666,39.798365,-91.526854
1240,TEMP STOP #103,US-65,Sedalia,MO,400,3.199,38.703696,-93.23627
1247,SNAPPY MART #11,US-63 & SR-14,West Plains,MO,535,3.299,42.5776,-87.827264
1251,MAPCO #3009,US-72,Corinth,MS,435,3.154,34.904505,-88.483813
1256,DOUBLE QUICK #89,US-82/US-278,Greenville,MS,655,3.25566666,33.39019,-91.052512
1265,JOE JOES TRAVEL CENTER,US-78 & RED BANKS RD S,Red Banks,MS,435,2.97233333,37.021283,-78.143727
1304,LOVES TRAVEL STOP #667,"I-85, EXIT 152",Mebane,NC,65,3.94733333,36.089779,-79.272072
1315,CIRCLE K #2720218,US-421 BUS & US-15/US-501/US-1,Sanford,NC,177,3.08233333,35.486513,-79.196449
1325,SCOTCHMAN #3303,US-421 & US-74,Wilmington,NC,245,3.629,34.225493,-77.946116
1326,SPEEDWAY #7949,US-301/US-264 ALT & CR-1674,Wilson,NC,205,3.199,35.730745,-77.925115
1333,PUMP & PANTRY #15,US-30,Grand Island,NE,330,3.30733333,40.929415,-98.365395
1340,BORDENTOWN VALERO,"NJ TNPK, EXIT 7 & US-206",Bordentown,NJ,230,3.499,40.126888,-74.713343
1342,Delta,"I-80, EXIT 47B",Fairfield,NJ,115,3.20233333,40.88371,-74.30598
1344,BOLLA TRUCK STOP #193,US-202 & SR-17,Mahwah,NJ,115,3.53233333,40.954344,-74.211309
1348,GLOBAL,SR-73,Palmyra,NJ,150,3.359,40.0053,-75.033894
1356,LOVES TRAVEL STOP #257,"I-40 & HORIZON, EXIT 79",Milan,NM,580,3.59066666,51.291675,-113.994402
1364,7- ELEVEN #40507,"I-80/I-90, MM 56 WB",Rolling Prairie,IN,465,3.98233333,41.674502,-86.622183
1372,PILOT TRAVEL CENTER #469,"I-77, EXIT 101 & SR-627",Canton,OH,249,3.62233333,40.803604,-81.375052
1376,FUEL MART #782,"I-75, EXIT 118",Lima                                    ,OH,411,3.08566666,40.741448,-84.108082
1379,TA LODI TRAVEL CENTER,"I-71, EXIT 209 & I-76/US-224, EXIT 1",Seville,OH,305,3.739,39.907347,-75.241447
1384,SUNOCO,"I-80/I-90, EXIT 13 & US-20ALT/SR-15",Montpelier,OH,550,3.41566666,41.581935,-84.602896
1391,ONCUE EXPRESS #2045,"I-35, EXIT 203 & SR-15",Billings,OK,500,3.21566666,45.787229,-108.501912
1395,DOMINO FOOD AND FUEL #1,"I-40, EXIT 66",Clinton                                 ,OK,483,3.099,35.505003,-98.973886
1404,ONE9 #339,"I-74, EXIT 4 & SR-63",Covington,IN,375,3.26233333,40.639018,-74.020536
1414,SAC SHOP #507,"I-70, EXIT 12/161",Breezewood                              ,PA,14,4.099,39.99925,-78.23862
1424,GETTYSBURG TRAVEL PLAZA,US-15 & SR-394,Gettysburg,PA,70,3.899,40.794689,-77.858961
1428,CIRCLE K #4702408,"I-65, EXIT 168 & SR-38/SR-25",Lafayette,IN,375,3.43233333,33.639043,-112.004242
1432,KWIK FILL #259,"I-81, EXIT 57",Mechanicsburg                           ,PA,70,4.049,40.213158,-77.007868
1444,PILOT TRAVEL CENTERS #346,"I-20, EXIT 92 & US-601",Lugoff,SC,135,3.43233333,34.220977,-80.668447
1445,PILOT TRAVEL CENTERS #402,"I-80, EXIT 367",Cheyenne,WY,795,3.709,41.138437,-104.812406
1447,HOT SPOT #3005,US-221,Chesnee,SC,210,3.199,35.148484,-81.863651
1453,EXPRESS STOP,US-278/SR-101/SR-6 & SR-113,Rockmart,GA,193,3.319,34.089216,-84.340005
1455,PETRO FLORENCE,"I-95, EXIT 169",Florence,SC,46,3.32566666,34.182369,-79.786461
1461,CIRCLE K #2705370,"I-26, EXIT 15 & US-176",Inman,SC,210,3.099,35.048498,-82.09011
1464,CIRCLE K #2723254,"I-20, EXIT 55 & SR-6",Lexington,SC,135,3.199,-27.086605,-48.907528
1470,CIRCLE K #2705348,US-1,Beech Island,SC,135,3.159,33.42736,-81.89095
1479,TA SPARTANBURG TRAVEL CENTER,"I-85, EXIT 63 & SR-290",Duncan,SC,210,3.43233333,34.936023,-82.145408
1487,ROADRUNNER MARKET #6019,"I-81, EXIT 36 NORTH",Greeneville                             ,TN,405,3.499,36.165174,-82.812518
1492,MAPCO #3538,"I-24, EXIT 174",Chattanooga,TN,285,2.899,35.091981,-85.234979
1507,CIRCLE K #4703941,"I-55, EXIT 5A",Memphis,TN,435,3.189,35.112125,-89.954644
1516,LOVES TRAVEL STOP #261,I-27 EXIT 116,Amarillo,TX,585,3.23233333,35.221849,-101.840963
1531,CircleK #4702365,"I-74, EXIT 112 & SR-9",Shelbyville,IN,375,3.509,40.475594,-85.967487
1533,YESWAY #1157,US-62,Brownfield,TX,700,2.99233333,33.178657,-102.274741
1546,SHELL,"I-35, EXIT 86 & SR-85",Dilley,TX,740,3.099,-29.032169,167.952483
1548,TOOT N TOTUM #107,US-287,Dumas,TX,585,3.03233333,35.865392,-101.962718
1552,STRIPES #40911,US-59 & SR-16,Freer,TX,625,3.099,41.151909,-81.386869
1555,SEIBERT TRAVEL PLAZA,"I-70, EXIT 405 & SR-59",Seibert,CO,800,3.499,41.151909,-81.386869
1560,CATTREZ,US-20 & SR-5,Irving,NY,38,2.899,25.795362,-80.204681
1560,CATTREZ,US-20 & SR-5,Irving,NY,38,2.999,25.795362,-80.204681
1562,I MART #108,"I-40, EXIT 108",Wildersville                            ,TN,435,3.099,35.78145,-88.36032
1567,KUM & GO #4110,"I-235, EXIT 11",Des Moines,IA,320,3.02733333,41.574349,-93.61043
1579,FLYING J TRAVEL PLAZA #924- TOWN PUMP,"I-15, EXIT 122 & I-90 MM220",Butte                                   ,MT,816,3.56566666,45.735913,-108.608527
1582,LOVES TRAVEL STOP #250,I-40 EXIT 60,Amarillo,TX,585,3.314,35.221849,-101.840963
1585,Stripes 7Fleet #42498,US-385 & CR-1910,Andrews,TX,710,3.369,31.825485,-102.356098
1590,ROAD RANGER #240,"I-80 & I-94, EXIT 15-A",Lake Station,IN,365,3.559,40.887328,-96.678697
1596,FLYING J #305,"I-40, EXIT 39",Jamestown,NM,580,3.44233333,35.480487,-108.430767
1597,7-ELEVEN #36156,"I-70 & SR-519, EXIT 25/333",Eighty Four,PA,165,4.999,40.1755,-80.12977
1599,ONVO TRAVEL PLAZA,"I-81, EXIT 10",Mc Graw,NY,220,3.439,40.68295,-73.9708
1599,ONVO TRAVEL PLAZA,"I-81, EXIT 10",Mc Graw,NY,220,3.459,40.68295,-73.9708
1602,CIRCLE K #2723387,US-98,Beaumont,MS,620,3.56566666,31.165217,-88.933445
1606,DONNAS TRAVEL PLAZA,"I-5, EXIT 202",Marysville,WA,962,4.559,48.062073,-122.160311
1610,TA BALTIMORE TRAVEL CENTER,"I-95, EXIT 57",Baltimore                               ,MD,22,4.759,39.319732,-76.649533
1618,GO MART FOOD STORE #33,US-33,Ripley                                  ,WV,44,3.499,38.820415,-81.726704
1621,CIRCLE K #2709337,"I-65, EXIT 262B",Birmingham                              ,AL,615,3.489,33.530651,-86.800929
1622,RACEWAY #6973,US-380 & SR-114/SR-101,Bridgeport,TX,630,2.78233333,33.212762,-97.765116
1623,SAPP BROS TRAVEL CENTER,"I-70 & I-270, EXIT 278",Commerce City,CO,800,3.389,39.772243,-104.810471
1625,PILOT TRAVEL CENTERS #60,"I-26, EXIT 159",Bowman                                  ,SC,42,3.43233333,33.349348,-80.683349
1632,PILOT TRAVEL CENTERS #266,"I-10, EXIT 139 & SR-292",Las Cruces                              ,NM,640,3.19066666,40.616797,-83.596761
1633,7-ELEVEN #36302,"I-35, EXIT 144",Von Ormy,TX,740,3.109,29.278779,-98.658588
1634,PILOT TRAVEL CENTERS #40,"I-94, EXIT 322",Oak Creek,WI,444,3.889,42.879225,-87.914669
1644,ALLSUPS CONVENIENCE STORE #2414,"I-20, EXIT 235",Roscoe,TX,575,2.929,32.440683,-100.544007
1646,SPEEDWAY #8310,US-6  & US-31,Plymouth,IN,465,3.609,41.350048,-86.321181
1647,SPEEDWAY #8305,US-41 & SR-312,Hammond,IN,290,3.76566666,35.011806,-77.571517
1653,ROAD RANGER #187,"I-55, EXIT 289",Chicago,IL,520,3.569,41.87897,-87.66063
1653,ROAD RANGER #187,"I-55, EXIT 289",Chicago,IL,520,3.599,41.87897,-87.66063
1654,CEFCO #3,US-77/US190/SR-36,Cameron,TX,670,2.989,30.858717,-96.975012
1661,CHEVRON,"I-20, EXIT 101 & SR-151",Calhoun,LA,590,3.159,32.514968,-92.353924
1669,BETTY BEAVERS TRUCKSTOP,"I-90, EXIT 28",Fultonville,NY,12,3.149,42.946202,-74.370213
1669,BETTY BEAVERS TRUCKSTOP,"I-90, EXIT 28",Fultonville,NY,12,3.189,42.946202,-74.370213
1670,Petro Stopping Center #54,"I-44, EXIT 4 & SR-3",Joplin,MO,277,3.449,46.786685,-92.106493
1671,LOVES TRAVEL STOP #412,"I-95, EXIT 77",Dunn,NC,205,3.699,35.310395,-78.613831
1672,HANA TRAVEL PLAZA,"I-40,  EXIT 77",Amarillo,TX,585,2.899,35.221849,-101.840963
1699,ALLENS FOOD MART280,US-280/US-231/SR-53/SR-38 & CR-8/CR-34,Sylacauga,AL,615,3.799,33.160974,-86.25918
1700,TOPPS FUEL STOPS,US-259/SR-49,Daingerfield,TX,723,3.109,33.03415,-94.726691
1720,TOOT N TOTUM #120,US-54 & S WESTERN AVE,Liberal,KS,585,3.01566666,22.282425,114.146396
1749,HIGHWAY 96 FUEL STOP,US-96 & SR-62/FM-1004,Buna                                    ,TX,610,3.149,6.254839,-75.541346
1753,PWI #169,"I-35/US-77, EXIT 359 & CR-1304",Abbott,TX,765,2.899,31.893236,-97.103895
1773,M-46 AUTO TRUCK PLAZA,"US-131, EXIT 120 & SR-46",Howard City,MI,344,3.199,45.014796,-92.984666
1773,M-46 AUTO TRUCK PLAZA,"US-131, EXIT 120 & SR-46",Howard City,MI,344,3.599,45.014796,-92.984666
1773,M-46 AUTO TRUCK PLAZA,"US-131, EXIT 120 & SR-46",Howard City,MI,344,3.099,45.014796,-92.984666
1791,PILOT TRAVEL CENTERS #257,"I-20, EXIT 126 & FM-1788",Midland                                 ,TX,710,3.56566666,32.020111,-102.117875
1807,LOVES TRAVEL STOP #229,I-40 EXIT 96 & SR-207,Panhandle,TX,585,3.314,33.22124,-94.34603
1810,KENT KWIK #804,US-83,Perryton,TX,585,2.999,36.391666,-100.805346
1829,PILOT TRAVEL CENTERS #96,"SR- 60 & FL TURNPIKE, EXIT 193",Okeechobee,FL,143,3.719,27.242799,-80.830148
1829,PILOT TRAVEL CENTER #96,"SR- 60 & FL TURNPIKE, EXIT 193",Okeechobee,FL,143,3.699,27.242799,-80.830148
1832,CORNER FUEL CENTER,US-49,Hattiesburg,MS,620,3.299,31.307424,-89.316604
1834,PUMP N PANTRY #15,"I-20, EXIT 617 & US-59",Marshall,TX,766,2.899,30.16563,-96.842107
1849,Stripes #42457,US-67/US-277,San Angelo,TX,740,3.244,31.459689,-100.444688
1855,EXIT 76 AUTO TRUCK PLAZA,US-131,Byron Center,MI,344,3.499,42.812224,-85.72793
1858,FLYING J TRAVEL PLAZA #737,"I-10, EXIT 583",San Antonio                             ,TX,740,3.224,29.374994,-98.588562
1859,GO MART FOOD STORE #44,"I-79, EXIT 67 & US-19/SR-4",Sutton,WV,44,3.559,38.665398,-80.710359
1860,MR FUEL #278,"I-75/71, EXIT 175 & SR-338",Walton,KY,300,3.019,38.86354,-84.614704
1861,PETRO STOPPING CENTER #315,"I-40, EXIT 66",Kingman,AZ,910,3.899,35.208957,-114.023342
1866,PRI MART FUEL CENTER,"I-94, EXIT 29",Benton Harbor                           ,MI,465,3.799,42.111161,-86.45104
1866,PRI MART FUEL CENTER,"I-94, EXIT 29",Benton Harbor                           ,MI,465,3.499,42.111161,-86.45104
1873,JDS TRUCKSTOP,"US-12 & US-31, EXIT 3",Niles,MI,465,3.749,41.866764,-86.295113
1873,JDS TRUCKSTOP,"US-12 & US-31, EXIT 3",Niles,MI,465,3.849,41.866764,-86.295113
1874,CIRCLE K #2744529,US-175,Seagoville,TX,630,2.95066666,32.644724,-96.520915
1879,HOLIDAY STATIONSTORE #3552,"I-35, EXIT 81 & SR-70",Lakeville,MN,448,3.549,47.923999,-122.300371
1888,STRIPES 7FLEET #42449,US-87,Sterling City,TX,710,3.28066666,31.836723,-100.996326
1889,TOOT N TOTUM #105,US-54 & US-287,Stratford,TX,585,2.96566666,36.33641,-102.073073
1893,MIKE MCDONALD TRUCK STOP,"I-20, EXIT 509",Terrell                                 ,TX,637,2.87066666,30.221303,-102.067703
1894,CIRCLE K #2741544,"I-37 & SR-72, EXIT 69",Three Rivers,TX,747,3.06566666,40.290233,-83.031788
1897,YESWAY #1077,"I-20/US-84, EXIT 278",Tye,TX,575,2.87566666,32.458204,-99.862533
1905,LUCKY TRUCK STOP,US-82,Whitesboro                              ,TX,630,2.88566666,31.64293,-97.9717
1909,RALLYSTOP #1,"I-15, EXIT 62",Cedar City,UT,791,3.459,37.67748,-113.06189
1914,LOVES TRAVEL STOP #792,"I-70, EXIT 160",Green River,UT,835,3.709,38.991788,-110.11284
1921,BELL TRUCK STOP,"I-80, EXIT 146",Park City,UT,835,3.45233333,40.64482,-111.496653
1923,SCENIC QUIK STOP,"I-70, EXIT 54 & US-89",Salina,UT,835,3.459,38.927041,-111.863495
1930,CASEYS #3058,"I-35, EXIT 19 & US-160 E",Wellington,KS,570,3.299,37.271514,-97.397345
1931,RBS ONE STOP,"I-15, EXIT 320",Woods Cross                             ,UT,835,3.459,40.873884,-111.917771
1934,CIRCLE K #2723710,"I-77, EXIT 24",Austinville,VA,185,3.24066666,36.85123,-80.91202
1936,QUICK STOP MARKET #36,"I-81, EXIT 10 & US-11",Bristol,VA,185,3.399,36.59649,-82.18847
1940,7-ELEVEN #40063,"I-81, EXIT 98 & SR-100",Dublin,VA,65,3.199,-27.91858,153.170689
1944,LOVES TRAVEL STOPS #399,"I-77, EXIT 1 & SR-620",Lambsburg,VA,65,3.589,37.330966,-79.21695
1944,LOVES TRAVEL STOP #399,"I-77, EXIT 1 & SR-620",Lambsburg,VA,65,3.589,37.330966,-79.21695
1950,7-ELEVEN #34515,"I-81, EXIT 205",King George,VA,180,3.399,38.258353,-77.139346
1951,CIRCLE K #2723713,"I-81, EXIT 205",Staunton,VA,185,3.38566666,38.14958,-79.0717
1953,FAS MART #3555,"I-64, EXIT 136 & US-15",Gordonsville,VA,180,3.699,25.644555,-80.335923
1954,Joe's Kwik Mart #8409,US-58 & CR-645,Suffolk,VA,130,3.03233333,38.176423,-78.889338
1956,PILOT TRAVEL CENTER #4642,"I-81, EXIT 291",Toms Brook,VA,60,3.659,38.946926,-78.439519
1958,SPEEDWAY #4618,"I-81 & I-77, EXIT 77",Wytheville,VA,185,3.41233333,37.357226,-79.958157
1960,MAPLEWOOD IRVING,"I-89, EXIT 7",Montpelier                              ,VT,170,3.699,44.263716,-72.57541
1962,SUPER QUIK,"I-64, EXIT 172 & SR-1/SR-7",Grayson,KY,255,3.799,36.712205,15.091886
1976,One9 #963,"I-90, EXIT 276",Spokane                                 ,WA,970,3.989,47.660011,-117.4058
1976,One9 #963,"I-90, EXIT 276",Spokane                                 ,WA,970,3.959,47.660011,-117.4058
1977,GEE CEES TRUCK STOP,"I-5, EXIT 57",Toledo,WA,977,3.839,46.438612,-122.84894
1983,KWIK TRIP #427,"US-53, EXIT 110 & SR-40",Bloomer,WI,295,3.41566666,26.175429,-80.099384
1985,Camp Douglas BP,"I-90 & I-94, EXIT 55",Camp Douglas                            ,WI,420,3.154,44.96419,-92.557913
2000,RIVER CITY TRAVEL PLAZA,US-41,Marinette,WI,360,3.399,45.088331,-87.633148
2002,KWIK TRIP #222,US-53/US-2,Superior,WI,334,3.339,46.70563,-92.103003
2009,KWIK TRIP #139,"I-43, EXIT 120 & CR-V/CR-OK",Sheboygan,WI,444,3.29066666,35.48621,-78.257364
2020,BFS FOODS #72,"I-68, EXIT 23 & SR-26",Bruceton Mills,WV,165,3.499,39.298879,-78.437016
2021,GO MART FOOD STORE #59,"I-64, EXIT 15 & US-60",Huntington,WV,255,3.499,38.413815,-82.428601
2022,GO MART FOOD STORE #86,"I-79, EXIT 40 & SR-16",Ivydale                                 ,WV,44,3.599,26.175429,-80.099384
2029,HOMAX SERVICE,"I-25, EXIT 188",Mills                                   ,WY,790,3.169,42.845141,-106.386072
2030,GHOST TOWN FUEL STOP,US-26/US-20,Casper,WY,790,3.429,42.844293,-106.311687
2034,TA CHEYENNE TRAVEL CENTER,"I-80, EXIT 377 & SR-217/CR-140",Cheyenne,WY,795,3.699,41.138437,-104.812406
2040,Fast Stop Travel Centers #1133,"I-25, EXIT 126 & US-18/20",Douglas,WY,790,3.499,42.755834,-105.379458
2041,PINE BLUFFS SINCLAIR,"I-80, EXIT 401 & US-30",Pine Bluffs,WY,795,3.699,42.849754,-106.323386
2044,One9 #1251,"I-80, EXIT 173",Wamsutter,WY,795,3.499,41.668378,-107.979034
2074,STRIPES #40522,"I-10, EXIT 550",San Antonio,TX,740,3.059,29.374994,-98.588562
2076,ALLSUPS CONVENIENCE STORE #2159,US-283 BUS/US-277 BUS & SR-422,Seymour,TX,770,3.299,-26.316359,-48.835183
2078,ALLSUPS CONVENIENCE STORE #2366,US-84 & CR-3300,Slaton                                  ,TX,700,2.969,27.75205,-82.678047
2084,Main Street Market #112,"I-20, EXIT 73",Wickett,TX,710,2.879,31.568452,-103.00384
2087,LWS TRUCK STOP,SR-30,Logan,UT,835,3.42566666,41.737965,-111.846011
2088,FLYING J TRAVEL PLAZA #773,"I-70, EXIT 40",Richfield                               ,UT,835,3.699,38.772523,-112.088746
2089,FLYING J TRAVEL PLAZA #774,"I-84, EXIT 7",Snowville                               ,UT,835,3.749,41.972778,-112.716387
2115,KWIK TRIP #838,SR-23/SR-33,Reedsburg,WI,420,3.194,43.535918,-89.989935
2125,BIG D #44,"I-80, EXIT 311 & SR-130",Laramie,WY,795,3.249,41.313704,-105.602581
2144,Mountain View Truck Stop,US-15,Thurmont,MD,60,4.099,39.623572,-77.410966
2152,SPEEDWAY #4709,"I-90, EXIT 102",Fairmont,MN,425,3.299,43.64956,-94.467251
2167,PILOT TRAVEL CENTERS #134,"I-94, EXIT 171 (CR 75)",Saint Cloud,MN,451,3.28733333,45.530748,-94.18087
2182,PILOT TRAVEL CENTER #4649,"I-64 & I-81, EXIT 205",Raphine,VA,185,3.659,37.357226,-79.958157
2192,GO MART FOOD STORE #51,US-19/SR-129,Mount Nebo                              ,WV,44,3.599,39.6023,-79.70783
2194,A AND A TRUCKSTOP,US-35 & CR-41,Jackson,OH,315,3.799,25.809097,-80.124558
2196,Certified Oil #400410,I-76 EXIT 43,Ravenna,OH,249,3.31566666,41.156697,-81.24258
2204,NATURAL BRIDGE SHELL,US-278 & SR-5,Lynn,AL,615,3.68233333,33.169399,-101.80756
2209,Roadrunner #471,"I-40/US-65, EXIT 142 & SR-365",North Little Rock,AR,695,3.03233333,34.784787,-92.258199
2219,PILOT TRAVEL CENTER #66,"I-85, EXIT 129",Braselton,GA,16,3.27233333,34.10326,-83.831106
2219,PILOT TRAVEL CENTERS #66,"I-85, EXIT 129",Braselton,GA,16,3.27233333,34.10326,-83.831106
2223,PO JOS GAS N GO,"I-16 SR-404, EXIT 116 & US-301/SR-73",Register,GA,195,3.23233333,32.365927,-81.884804
2227,SPEEDWAY #7448,SR-59,Naperville,IL,293,3.299,41.762684,-88.190457
2227,SPEEDWAY #7448,SR-59,Naperville,IL,293,3.359,41.762684,-88.190457
2231,QUIKTRIP #605,"I-270, EXIT 33",Saint Louis,MO,540,2.899,38.633024,-90.244086
2255,S&G #36,"I-280, EXIT 2 & SR-795",Millbury,OH,550,3.49233333,41.564559,-83.555728
2267,Circle K #4703917,"I-65, EXIT 112 & SR-25",Cross Plains,TN,460,2.949,12.824653,80.04648
2283,CIRCLE K #2707321,SR-60,Bartow,FL,225,3.52233333,27.875866,-81.804177
2287,SAC SHOP #511,"I-76/I-70, EXIT 146 & I-99/US-220 EXIT 1",Bedford,PA,14,4.099,40.072831,-78.484576
2306,SCOTCHMAN #3894,"I-77, EXIT 73 & SR-901",Rock Hill,SC,210,3.079,34.933452,-81.019857
2310,MAPCO #3686,"I-24, EXIT 175",Chattanooga,TN,285,2.889,35.091981,-85.234979
2311,SHELL,"I-24 & EPPS MILL RD, EXIT 89",Christiana                              ,TN,460,3.13233333,35.719501,-86.325307
2331,PINNERS POINT,SR-135,Portsmouth,VA,130,3.499,36.83543,-76.29827
2336,FLYING J TRAVEL PLAZA #754,"I-77 & I-81, EXIT 77",Wytheville,VA,185,3.549,37.357226,-79.958157
2340,RSTORE #4478,SR-8 & SR-13,Prentice,WI,395,3.039,44.090584,-87.659118
2557,PWI #106,"I-30, EXIT 77B",Royse City,TX,630,2.899,32.971462,-96.330093
2602,PILOT TRAVEL CENTERS #9,"I-75, EXIT 36",Franklin,OH,407,3.35233333,39.563102,-84.295515
2623,TA JANESVILLE TRAVEL CENTER,"I-90/I-39, EXIT 171B & US-14",Janesville,WI,420,3.299,42.678636,-89.025807
2626,WEST END SINCLAIR,"I-80, EXIT 211",Rawlins,WY,838,3.319,41.786119,-107.232205
2629,PILOT TRAVEL CENTERS #253,"I-295 & NJ TRNPK,  EXIT 2B",Penns Grove,NJ,243,3.989,40.756426,-74.057187
2635,FLYING J #584,"I-5, EXIT 278",Aurora,OR,935,3.859,29.908973,-89.941475
2638,PIT STOP TRAVEL CENTER,US-789,Riverton                                ,WY,790,4.399,43.027342,-108.386516
2640,LITTLE NASHVILLE,"I-64, EXIT 50 & SR-127",Nashville,IL,540,3.399,34.985637,-78.044823
2640,LITTLE NASHVILLE,"I-64, EXIT 50 & SR-127",Nashville,IL,540,3.299,34.985637,-78.044823
2644,FREDERICKS TRAVEL CENTER,"I-25/US-87, EXIT 235 & SR-52",Erie,CO,800,3.499,40.743122,-83.823024
2756,PAR MAR FOOD STORE #89,"I-77/SR-2, EXIT 170 & SR-14 E",Mineral Wells,WV,430,3.499,51.209546,-2.644899
2761,PONY EXPRESS SERVICE CENTER,US-36 & SR-148,Hanover,KS,316,2.95566666,26.173507,-80.099685
2764,LOVES TRAVEL STOP #046,US-64/54 & SR-94,Hooker,OK,585,3.56233333,32.604927,-116.610496
2765,LOVES TRAVEL STOP #023,US-50 & US-287,Lamar,CO,525,3.46233333,38.074768,-102.618518
2772,PILOT TRAVEL CENTERS #29,"I- 80, EXIT 144; I-69, EXIT 357",Fremont                                 ,IN,465,3.899,41.733299,-84.891454
2772,PILOT TRAVEL CENTER #29,"I- 80, EXIT 144; I-69, EXIT 357",Fremont                                 ,IN,465,3.899,41.733299,-84.891454
2779,Stinker #121,I-84 & EXIT 208,Heyburn,ID,787,3.56066666,41.423343,-73.629503
2788,JIFFY MART #451,"I-91, EXIT 17 & SR-302",Wells River,VT,39,3.569,13.397174,-15.801286
2805,Fast Stop Travel Centers #1145,"I-15,  EXIT 31",Downey,ID,825,3.799,42.428844,-112.1235
2807,SUDDEN SERVICE #25,"I-24, EXIT 11",Clarksville,TN,460,3.30733333,36.575216,-87.333526
2811,KWIK FILL #22,"I-90, EXIT 40 & SR-34/SR-31",Weedsport,NY,220,3.899,43.048169,-76.563629
2817,Chevron #382354,"I-5/US-12, EXIT 72",Chehalis,WA,977,4.299,46.66986,-122.973954
